[
  {
    "name": "Rana Prathap Simh Mukthavaram",
    "image": "https://dl.airtable.com/.attachmentThumbnails/568134fea19c1e34a98c06cfd77a86ec/949489e7",
    "region": "Asia",
    "city": "City",
    "country": "Country",
    "slackId": "FAKE123",
    "slackUsername": "RanaM"
  },
  {
    "name": "James Wooton",
    "image": "/images/advocates/no-advocate-photo.png",
    "region": "Europe",
    "city": "Somewhere",
    "country": "Else",
    "slackId": "USER456",
    "slackUsername": "jamesw"
  },
  {
    "name": "Panagiotis Barkoutsos",
    "image": "https://dl.airtable.com/.attachmentThumbnails/686804f0c77512d7ae7f7946ccb7a5e8/9670c5ad",
    "region": "Europe",
    "location": "Switzerland"
  },
  {
    "name": "Jose Gilberto Biondo Jr",
    "image": "https://dl.airtable.com/.attachmentThumbnails/b8b8486b61abbb7cfc9092999f0d7e9a/fbdba948",
    "region": "South America",
    "location": "Brazil"
  },
  {
    "name": "Luciano Bello",
    "image": "/images/advocates/no-advocate-photo.png",
    "region": "North America",
    "location": "USA"
  },
  {
    "name": "Pedro Rivero Ramírez",
    "image": "https://dl.airtable.com/.attachmentThumbnails/5b2f52109d3645a0bd92623bd50286dd/487cc8d4",
    "region": "North America",
    "location": "USA"
  },
  {
    "name": "Takehiko Amano",
    "image": "/images/advocates/no-advocate-photo.png",
    "region": "Asia",
    "location": "Japan"
  },
  {
    "name": "Hermanni Heimonen",
    "image": "https://dl.airtable.com/.attachmentThumbnails/9c953e2f5d047e33b23bbd8eca079a79/06d9b50a",
    "region": "Europe",
    "location": "Finland"
  },
  {
    "name": "Jack Ceroni",
    "image": "https://dl.airtable.com/.attachmentThumbnails/e2bc028a53727356dd5461f457e7ccdb/ffcfbf24",
    "region": "North America",
    "location": "Canada"
  },
  {
    "name": "Animesh Narayan Dangwal",
    "image": "https://dl.airtable.com/.attachmentThumbnails/3f6a8430daca038f081c485f8625e775/ea8217fe",
    "region": "Asia",
    "location": "India"
  },
  {
    "name": "Carmen Recio Valcarce",
    "image": "https://dl.airtable.com/.attachmentThumbnails/deb6c11e9ac756cc856a989d0f53f914/aac86c6e",
    "region": "Europe",
    "location": "Spain"
  },
  {
    "name": "Kallie Ferguson",
    "image": "/images/advocates/no-advocate-photo.png",
    "region": "North America"
  },
  {
    "name": "Jan-Rainer Lahmann",
    "image": "https://dl.airtable.com/.attachmentThumbnails/1f5413534ea3da6d4b318e0b05c1990c/7027b5e7",
    "region": "Europe",
    "location": "Germany"
  },
  {
    "name": "Oliver Oberst",
    "image": "https://dl.airtable.com/.attachmentThumbnails/0f9b8b4f7293d4083a819717bd31f17f/02f9d806",
    "region": "Europe",
    "location": "Germany"
  },
  {
    "name": "Wen-Sen Lu",
    "image": "https://dl.airtable.com/.attachmentThumbnails/05db6a6a6873dae01bb08817e154f082/5df4a156",
    "region": "North America",
    "location": "USA"
  },
  {
    "name": "David Morcuende Cantador",
    "image": "https://dl.airtable.com/.attachmentThumbnails/0f1643f4d50b84a6ccb5c1622fb3a4af/19154298",
    "region": "Europe",
    "location": "Spain"
  },
  {
    "name": "Desiree Vogt-Lee",
    "image": "https://dl.airtable.com/.attachmentThumbnails/b15bde438c1ea109e9c39ff071c8fc74/7cd423d8",
    "region": "Australia",
    "location": "Australia"
  },
  {
    "name": "Aditya Giridharan",
    "image": "https://dl.airtable.com/.attachmentThumbnails/f4b9a76a08de00a11309b262c2b40118/0b16700e",
    "region": "Asia",
    "location": "India"
  },
  {
    "name": "Eleonora Picca",
    "image": "https://dl.airtable.com/.attachmentThumbnails/63db22dd40b2342f2fb04550cc4dcc61/4f344d3b",
    "region": "Europe",
    "location": "Italy"
  },
  {
    "name": "Ji Liu",
    "image": "https://dl.airtable.com/.attachmentThumbnails/8a694469b033c9bdd52d6743c5f025d0/c5d9f857",
    "region": "North America",
    "location": "USA"
  },
  {
    "name": "Francois Varchon",
    "image": "/images/advocates/no-advocate-photo.png",
    "region": "Europe",
    "location": "France"
  },
  {
    "name": "Pauline Ollitrault",
    "image": "https://dl.airtable.com/.attachmentThumbnails/9aa80342941823735eab060e566dc93e/03d28a73",
    "region": "Europe",
    "location": "Switzerland"
  },
  {
    "name": "Eniola Sobimpe",
    "image": "/images/advocates/no-advocate-photo.png",
    "region": "North America",
    "location": "USA"
  },
  {
    "name": "Kiran Johns",
    "image": "https://dl.airtable.com/.attachmentThumbnails/584e0fe010d167a5ef821381521329f6/1b9c9212",
    "region": "Asia",
    "location": "India"
  },
  {
    "name": "Daniel Sierra-Sosa",
    "image": "https://dl.airtable.com/.attachmentThumbnails/925c4872bd5734f05e708600137fc29a/e64df7f7",
    "region": "North America",
    "location": "USA"
  },
  {
    "name": "Bruno Murta",
    "image": "https://dl.airtable.com/.attachmentThumbnails/686dc2ce23a89e3672a4ef2df539bb68/5b32cde8",
    "region": "Europe",
    "location": "Portugal"
  },
  {
    "name": "Ryan Mandelbaum",
    "image": "https://dl.airtable.com/.attachmentThumbnails/71732daea721ab9eeb1e9318c150dac9/d3ef9a1e",
    "region": "North America",
    "location": "USA"
  },
  {
    "name": "Spencer King",
    "image": "https://dl.airtable.com/.attachmentThumbnails/c864e0bbcce43a031421dae6273fd238/47fde74b",
    "region": "North America",
    "location": "USA"
  },
  {
    "name": "Michele Grossi",
    "image": "https://dl.airtable.com/.attachmentThumbnails/4165f3e0a9fc296ffdfd868f4425e8ea/3775af1c",
    "region": "Europe",
    "location": "Italy"
  },
  {
    "name": "Iqra Naz",
    "image": "https://dl.airtable.com/.attachmentThumbnails/0ccdb0eb0d326065f41fc2b255923213/04eeadb4",
    "region": "Asia",
    "location": "Pakistan"
  },
  {
    "name": "Abby Mitchell",
    "image": "https://dl.airtable.com/.attachmentThumbnails/22416a655ff0a062160c72c61efc4345/2c4f4bd9",
    "region": "Europe",
    "location": "UK"
  },
  {
    "name": "Amira Abbas",
    "image": "https://dl.airtable.com/.attachmentThumbnails/5419cdb6b553a435a091c8a93366ca02/05d0be50",
    "region": "Africa",
    "location": "South Africa"
  },
  {
    "name": "Sebastian Brandhofer",
    "image": "https://dl.airtable.com/.attachmentThumbnails/eac0df5a9e116e6a1bf0876a197cb182/5e21220c",
    "region": "Europe",
    "location": "Germany"
  },
  {
    "name": "Igor Sokolov",
    "image": "/images/advocates/no-advocate-photo.png",
    "region": "Europe",
    "location": "switzerland"
  },
  {
    "name": "Edwin Agnew",
    "image": "https://dl.airtable.com/.attachmentThumbnails/37c28de1877ff148fc6e3755c01ac2e1/0d3f11b8",
    "region": "North America",
    "location": "USA"
  },
  {
    "name": "Guglielmo Mazzola",
    "image": "/images/advocates/no-advocate-photo.png",
    "region": "Europe",
    "location": "Switzerland"
  },
  {
    "name": "Juan Gomez Mosquera",
    "image": "/images/advocates/no-advocate-photo.png",
    "region": "North America"
  },
  {
    "name": "Diego Athayde Monteiro",
    "image": "https://dl.airtable.com/.attachmentThumbnails/927ac7f91bfe3af6dcd881093c719a68/1edbf04f",
    "region": "South America",
    "location": "Brazil"
  },
  {
    "name": "Davide Ferrari",
    "image": "https://dl.airtable.com/.attachmentThumbnails/c1dcb1e1cf1b0224669711209fd455cf/2f3247ac",
    "region": "Europe",
    "location": "Italy"
  },
  {
    "name": "Matthew Treinish",
    "image": "/images/advocates/no-advocate-photo.png",
    "region": "North America",
    "location": "USA"
  },
  {
    "name": "Sanjay Vishwakarma",
    "image": "https://dl.airtable.com/.attachmentThumbnails/3b5debea8e5bf7914c21468b70d5e034/46e6d23b",
    "region": "North America",
    "location": "USA"
  },
  {
    "name": "Kaori Namba (legal name: Maruyama)",
    "image": "https://dl.airtable.com/.attachmentThumbnails/42df6976d5415646de07a29ad7ec8159/5a2bb14d",
    "region": "Asia",
    "location": "Japan"
  },
  {
    "name": "Cenk Tüysüz",
    "image": "https://dl.airtable.com/.attachmentThumbnails/75affa050f93a777f53711198e41a586/8efc0eda",
    "location": "Turkey"
  },
  {
    "name": "NGOUEYA AKANJI Aziz",
    "image": "/images/advocates/no-advocate-photo.png"
  },
  {
    "name": "Yuri Kobayashi",
    "image": "https://dl.airtable.com/.attachmentThumbnails/92f245c15b9b9b496a5031e593500ff1/38fb0293",
    "region": "Asia",
    "location": "Japan"
  },
  {
    "name": "ivano Tavernelli",
    "image": "/images/advocates/no-advocate-photo.png",
    "region": "Europe",
    "location": "switzerland"
  },
  {
    "name": "Rochisha Agarwal",
    "image": "https://dl.airtable.com/.attachmentThumbnails/f1b6601dc17a531bf9d6418d58ccebcb/3bbab89f",
    "region": "Asia",
    "location": "India"
  },
  {
    "name": "Gilad Pollack",
    "image": "/images/advocates/no-advocate-photo.png",
    "region": "Asia",
    "location": "Israel"
  },
  {
    "name": "Elisa Bäumer",
    "image": "https://dl.airtable.com/.attachmentThumbnails/8ee011bfaf5e1e0cd347ad9c33147459/bfb81806",
    "region": "Europe",
    "location": "Switzerland"
  },
  {
    "name": "Eesh Gupta",
    "image": "https://dl.airtable.com/.attachmentThumbnails/5c18cb8053a7bfb22fee8cab9fc573f5/13da61b8",
    "region": "North America",
    "location": "USA"
  },
  {
    "name": "Manjula Gandhi S",
    "image": "https://dl.airtable.com/.attachmentThumbnails/5a9510d2d0f4500580f61d772284a21b/0ab9873d",
    "region": "Asia",
    "location": "India"
  },
  {
    "name": "Leung Shek Lun, Alan",
    "image": "https://dl.airtable.com/.attachmentThumbnails/c8c51d4cc0ae3d028db53001543e4d58/5aebc8cc",
    "region": "Asia",
    "location": "Hong Kong"
  },
  {
    "name": "Jody Burks",
    "image": "https://dl.airtable.com/.attachmentThumbnails/8a7773e5884de5cd9031d047fe5ae8d3/d8339c35",
    "region": "North America",
    "location": "USA"
  },
  {
    "name": "Saesun Kim",
    "image": "https://dl.airtable.com/.attachmentThumbnails/98868f371ab766c6bff57bad3a8013c3/578ae1b4",
    "region": "North America",
    "location": "USA"
  },
  {
    "name": "Rajiv Krishnakumar",
    "image": "/images/advocates/no-advocate-photo.png",
    "region": "Europe",
    "location": "Switzerland"
  },
  {
    "name": "Ivan Carvalho",
    "image": "https://dl.airtable.com/.attachmentThumbnails/a7ea2eef335b0ab716ab9fdbbf5827fd/8490bf9c",
    "region": "South America",
    "location": "Brazil"
  },
  {
    "name": "Joachim Schaefer",
    "image": "/images/advocates/no-advocate-photo.png",
    "region": "Europe",
    "location": "Belgium"
  },
  {
    "name": "Doug McClure",
    "image": "/images/advocates/no-advocate-photo.png",
    "region": "North America",
    "location": "USA"
  },
  {
    "name": "Özlem Salehi Köken",
    "image": "https://dl.airtable.com/.attachmentThumbnails/164a0de622e17e7aee07a622ef596993/f418bde2",
    "region": "Europe",
    "location": "Turkey"
  },
  {
    "name": "Nathan Earnest-Noble",
    "image": "/images/advocates/no-advocate-photo.png",
    "region": "North America",
    "location": "USA"
  },
  {
    "name": "Hassi Norlen",
    "image": "/images/advocates/no-advocate-photo.png",
    "region": "North America",
    "location": "USA"
  },
  {
    "name": "Harold Co",
    "image": "https://dl.airtable.com/.attachmentThumbnails/028e1f58b161a991e9bc3438deb9119c/0027ad2e",
    "region": "Europe",
    "location": "Switzerland"
  },
  {
    "name": "Paco Martin",
    "image": "https://dl.airtable.com/.attachmentThumbnails/b704fba56d3927a1cfdb00074249f79c/9ec8f1a8",
    "region": "North America",
    "location": "USA"
  },
  {
    "name": "Takehiko Amano",
    "image": "/images/advocates/no-advocate-photo.png",
    "location": "Japan"
  },
  {
    "name": "Amir Ebrahimi",
    "image": "https://dl.airtable.com/.attachmentThumbnails/7d07a1510dc7a003a213b6307faf622f/811de5bf",
    "region": "North America",
    "location": "USA"
  },
  {
    "name": "Christopher Zachow",
    "image": "https://dl.airtable.com/.attachmentThumbnails/71d441b85da3c8a0cbce7d880ff53ce4/02d7966a",
    "region": "Europe",
    "location": "Germany"
  },
  {
    "name": "Leron Gil",
    "image": "/images/advocates/no-advocate-photo.png",
    "region": "North America",
    "location": "usa"
  },
  {
    "name": "Max Rossmannek",
    "image": "https://dl.airtable.com/.attachmentThumbnails/c4837864e08d99aecff718ec307bbff5/8c3801bd",
    "region": "Europe",
    "location": "Switzerland"
  },
  {
    "name": "Anupama Ray",
    "image": "https://dl.airtable.com/.attachmentThumbnails/50e97681e93ffffbdc2ccc64908f5eda/1291b9f5",
    "region": "Asia",
    "location": "India"
  },
  {
    "name": "Alex Pozas-Kerstjens",
    "image": "https://dl.airtable.com/.attachmentThumbnails/aa9dd35cc9c4ae4fa5aa6a95a874b551/3c387d84",
    "region": "Europe",
    "location": "Spain"
  },
  {
    "name": "Jansen Zhikuan Zhao",
    "image": "https://dl.airtable.com/.attachmentThumbnails/f52ccf6b99a1495ac899c5574f65a3bd/52ecfe5c",
    "region": "Europe",
    "location": "Switzerland"
  },
  {
    "name": "Hanhee Paik",
    "image": "/images/advocates/no-advocate-photo.png",
    "region": "North America",
    "location": "USA"
  },
  {
    "name": "Jessica Kane",
    "image": "/images/advocates/no-advocate-photo.png",
    "region": "North America",
    "location": "USA"
  },
  {
    "name": "Edoardo Giusto",
    "image": "/images/advocates/no-advocate-photo.png",
    "region": "Europe",
    "location": "Italy"
  },
  {
    "name": "Eddie Schoute",
    "image": "/images/advocates/no-advocate-photo.png",
    "region": "North America"
  },
  {
    "name": "Yixiong Chen",
    "image": "https://dl.airtable.com/.attachmentThumbnails/ba173521ba8da8fb77bff559f5b14375/2c64482e",
    "region": "Asia",
    "location": "China"
  },
  {
    "name": "Henrik Dreyer",
    "image": "https://dl.airtable.com/.attachmentThumbnails/b56137db774102e57d996c9821d9ddf7/0c98b330",
    "region": "Europe",
    "location": "Germany"
  },
  {
    "name": "Gadi Aleksandrowicz",
    "image": "/images/advocates/no-advocate-photo.png",
    "region": "Asia",
    "location": "Israel"
  },
  {
    "name": "Diego Emilio Serrano",
    "image": "https://dl.airtable.com/.attachmentThumbnails/6036f58955419837b49e564c2e215c57/45dcc096",
    "region": "North America",
    "location": "USA"
  },
  {
    "name": "Sumit Puri",
    "image": "/images/advocates/no-advocate-photo.png",
    "region": "North America",
    "location": "USA"
  },
  {
    "name": "Daniel Bultrini",
    "image": "https://dl.airtable.com/.attachmentThumbnails/e62ba698d932ccaa648442dca743c898/08fe1f85",
    "region": "Europe",
    "location": "Spain"
  },
  {
    "name": "Lia Yeh",
    "image": "https://dl.airtable.com/.attachmentThumbnails/c4f05a19b69fded65fe98a570195d118/82532b9d",
    "region": "North America",
    "location": "USA"
  },
  {
    "name": "Jona Bühler",
    "image": "https://dl.airtable.com/.attachmentThumbnails/2f472eef2ad4103c9b17f164a461b4cb/bfa0c841",
    "region": "Europe",
    "location": "Switzerland"
  },
  {
    "name": "Ikko Hamamura",
    "image": "https://dl.airtable.com/.attachmentThumbnails/de87dcb6c439382addca43a2f978a94d/5e36d732",
    "region": "Asia",
    "location": "Japan"
  },
  {
    "name": "Antonello Aita",
    "image": "https://dl.airtable.com/.attachmentThumbnails/ee53e5d17cd06737074745b79252492c/2456d17f",
    "region": "Europe",
    "location": "Italy"
  },
  {
    "name": "Mark Mattingley-Scott",
    "image": "https://dl.airtable.com/.attachmentThumbnails/b97b07759ca77bab8ec70d9353d6c3bc/40c47788",
    "region": "Europe",
    "location": "Germany"
  },
  {
    "name": "Jennifer Harding",
    "image": "https://dl.airtable.com/.attachmentThumbnails/31bfacc5d53e3aeb1d9b29b98cacf910/71b6046a",
    "region": "Europe",
    "location": "UK"
  },
  {
    "name": "Olivia Lanes",
    "image": "https://dl.airtable.com/.attachmentThumbnails/e273a7e1abf527bc44318de35fec96fd/2e0e33cc",
    "region": "North America",
    "location": "USA"
  },
  {
    "name": "Frederik Flöther",
    "image": "https://dl.airtable.com/.attachmentThumbnails/07660c3ffca52c9aaaa59d662a7016bc/ef87a64c",
    "region": "Europe",
    "location": "Switzerland"
  },
  {
    "name": "Almudena Carrera Vazquez",
    "image": "https://dl.airtable.com/.attachmentThumbnails/43db4f6004fc458c20c2b5f6db8f3e61/d0b66316",
    "region": "Europe",
    "location": "Switzerland"
  },
  {
    "name": "Niall Moran ",
    "image": "https://dl.airtable.com/.attachmentThumbnails/b1c2965cb08f44cf1715471a514281e1/3262807e",
    "region": "Europe",
    "location": "Ireland"
  },
  {
    "name": "Julien Gacon",
    "image": "https://dl.airtable.com/.attachmentThumbnails/1bf4a3abde99f62940d03bda3b8baacd/200318a8",
    "region": "Europe",
    "location": "Switzerland"
  },
  {
    "name": "Pamela Pajarillo",
    "image": "https://dl.airtable.com/.attachmentThumbnails/b4276a4cffb39d70a5293e295fc7af2e/ae7997f1",
    "region": "North America",
    "location": "USA"
  },
  {
    "name": "Amir Karamlou",
    "image": "/images/advocates/no-advocate-photo.png",
    "region": "North America",
    "location": "USA"
  },
  {
    "name": "Merav Aharoni",
    "image": "/images/advocates/no-advocate-photo.png",
    "region": "Asia"
  },
  {
    "name": "Holly Cummins",
    "image": "/images/advocates/no-advocate-photo.png",
    "region": "Europe"
  },
  {
    "name": "Rahul Pratap Singh",
    "image": "https://dl.airtable.com/.attachmentThumbnails/0e7f45986237cac83cd69fc0a20d5d66/8ffcf55a",
    "region": "Asia",
    "location": "India"
  },
  {
    "name": "Francesco Tacchino",
    "image": "/images/advocates/no-advocate-photo.png",
    "region": "Europe",
    "location": "Italy"
  },
  {
    "name": "Lukas Möller",
    "image": "/images/advocates/no-advocate-photo.png",
    "region": "Europe",
    "location": "Switzerland"
  },
  {
    "name": "Catherine Liang",
    "image": "https://dl.airtable.com/.attachmentThumbnails/a7f4aac8433e2464d8afcca69b95a086/a6e35eec",
    "region": "North America",
    "location": "USA"
  },
  {
    "name": "Shelly Garion",
    "image": "https://dl.airtable.com/.attachmentThumbnails/84c270cec89bb9a219911565aba13e42/3e8086f0",
    "region": "Asia",
    "location": "Israel"
  },
  {
    "name": "Syed Muhammad Mooazam",
    "image": "https://dl.airtable.com/.attachmentThumbnails/8d0dfee9c47e412488fbb159a2d6342a/a1a0ee39",
    "region": "Asia",
    "location": "Pakistan"
  },
  {
    "name": "Kifumi Numata",
    "image": "/images/advocates/no-advocate-photo.png",
    "region": "Asia",
    "location": "Japan"
  },
  {
    "name": "Henry Liu",
    "image": "https://dl.airtable.com/.attachmentThumbnails/4d6cb58d6b1b62dd5fb4748c9b71965b/02c1ecb4",
    "region": "North America",
    "location": "USA"
  },
  {
    "name": "Ennio Picarelli",
    "image": "https://dl.airtable.com/.attachmentThumbnails/2735f2ccfc592e9387e9d6f10436dcac/d3b9e73d",
    "region": "Europe",
    "location": "Italy"
  },
  {
    "name": "James Weaver",
    "image": "/images/advocates/no-advocate-photo.png",
    "region": "North America",
    "location": "USA"
  },
  {
    "name": "Abraham Asfaw",
    "image": "/images/advocates/no-advocate-photo.png",
    "region": "North America",
    "location": "USA"
  },
  {
    "name": "Juan Luis Sánchez Toural",
    "image": "https://dl.airtable.com/.attachmentThumbnails/43014087ebbd4d64de377dacd9ed8ac4/2924e00e",
    "region": "Europe",
    "location": "Spain"
  },
  {
    "name": "Juan Cruz-Benito",
    "image": "https://dl.airtable.com/.attachmentThumbnails/eaecc68bcc3155bdc309ae5ff1a2d8bb/46f15355",
    "region": "Europe",
    "location": "Spain"
  },
  {
    "name": "Yael Ben-Haim",
    "image": "https://dl.airtable.com/.attachmentThumbnails/ba4b539cbfb695fc5a873593c9e0400e/4d9b8abd",
    "region": "Asia",
    "location": "Israel"
  },
  {
    "name": "Miro Tomasik",
    "image": "https://dl.airtable.com/.attachmentThumbnails/e523265e548506719632a3ac50984665/e0a4bf15",
    "region": "Europe",
    "location": "Slovakia"
  },
  {
    "name": "Rafael Martín-Cuevas Redondo",
    "image": "https://dl.airtable.com/.attachmentThumbnails/4b71f41affb5da133a7dfc7ab11ecea8/7084fab6",
    "region": "Europe",
    "location": "Spain"
  },
  {
    "name": "Utkarsh Azad",
    "image": "https://dl.airtable.com/.attachmentThumbnails/eb58183a91f4557339fe14533e612c18/c0d70e90",
    "region": "Asia",
    "location": "India"
  },
  {
    "name": "David Ittah",
    "image": "https://dl.airtable.com/.attachmentThumbnails/5ee3518ba483c9505b23e6a0340cdfa4/d94f789a",
    "region": "Europe",
    "location": "Switzerland"
  },
  {
    "name": "Marcus Daniels",
    "image": "https://dl.airtable.com/.attachmentThumbnails/a8386368fffbd74465ae08fe50d4654c/c137210a",
    "region": "North America",
    "location": "USA"
  },
  {
    "name": "Muhammad Miqdad Khan",
    "image": "https://dl.airtable.com/.attachmentThumbnails/7630d05d3e2f8eae7b2ea5798a26c33b/35134201",
    "region": "Asia",
    "location": "Pakistan"
  },
  {
    "name": "Asier Arranz",
    "image": "/images/advocates/no-advocate-photo.png",
    "region": "Europe",
    "location": "Spain"
  },
  {
    "name": "Matthew Stypulkoski",
    "image": "/images/advocates/no-advocate-photo.png",
    "region": "North America"
  },
  {
    "name": "Anna Phan",
    "image": "https://dl.airtable.com/.attachmentThumbnails/f62193b60bd6ac6957bf576978cd4b4a/c1eea326",
    "region": "Australia",
    "location": "Australia"
  },
  {
    "name": "Shantanu Jha",
    "image": "https://dl.airtable.com/.attachmentThumbnails/c9d964c57c1cfd31707b4f49d0d5d886/8392c9cf",
    "region": "North America",
    "location": "USA"
  },
  {
    "name": "Lisa Tse",
    "image": "/images/advocates/no-advocate-photo.png",
    "region": "Europe",
    "location": "UK"
  },
  {
    "name": "Aman Bansal",
    "image": "https://dl.airtable.com/.attachmentThumbnails/9d4cfef8781a9f6c4e26cac28a8c4e24/037b191c",
    "region": "Europe",
    "location": "Switzerland"
  },
  {
    "name": "Tharrmashastha SAPV",
    "image": "https://dl.airtable.com/.attachmentThumbnails/8da054d3ec75af8d29b9447b00c7085d/cbf689ca",
    "region": "Asia",
    "location": "India"
  },
  {
    "name": "MOZAMMIL HASSAN",
    "image": "/images/advocates/no-advocate-photo.png"
  },
  {
    "name": "Waheeda Saib",
    "image": "/images/advocates/no-advocate-photo.png",
    "region": "Africa",
    "location": "South Africa"
  },
  {
    "name": "Omar Costa Hamido",
    "image": "https://dl.airtable.com/.attachmentThumbnails/a3522ac526ea3c899b3f2965c686e606/a678fadc",
    "region": "North America",
    "location": "USA"
  },
  {
    "name": "Samanvay Sharma",
    "image": "https://dl.airtable.com/.attachmentThumbnails/3883f428f13b0bc1f4ee3a2db275d108/f44e3f51",
    "region": "Asia",
    "location": "India"
  },
  {
    "name": "Ana Martin",
    "image": "https://dl.airtable.com/.attachmentThumbnails/f1a186133ba68b40fb21389d202f4176/0db9d567",
    "region": "Europe",
    "location": "Spain"
  },
  {
    "name": "Soham Pal",
    "image": "https://dl.airtable.com/.attachmentThumbnails/9fd6e33086bdf43d0dabd804dd900c66/772d03e1",
    "region": "North America",
    "location": "USA"
  },
  {
    "name": "Giovanni Amedeo Cirillo",
    "image": "/images/advocates/no-advocate-photo.png",
    "region": "Europe",
    "location": "Italy"
  },
  {
    "name": "Hyensoo (Samuel) Choi",
    "image": "https://dl.airtable.com/.attachmentThumbnails/9cb3ac322a60f4743b8b3413fda0caca/d70b2957",
    "region": "Asia",
    "location": "South Korea"
  },
  {
    "name": "Nahum Rosa Cruz Sá",
    "image": "https://dl.airtable.com/.attachmentThumbnails/112392b535ed980d620b4f462604be1a/9d0f476b",
    "region": "South America",
    "location": "Brazil"
  },
  {
    "name": "Antonio Macaluso",
    "image": "https://dl.airtable.com/.attachmentThumbnails/7d9e4aba1b75f096bbcb148695580b62/62bdad1d",
    "region": "Europe",
    "location": "Italy"
  },
  {
    "name": "Manjula Gandhi S",
    "image": "https://dl.airtable.com/.attachmentThumbnails/e31868cf82577e4891872cd1ae175eed/5e7f4271",
    "location": "India"
  },
  {
    "name": "Takahide Nogayama",
    "image": "https://dl.airtable.com/.attachmentThumbnails/ce3638ab8e10b6cff59e7bac9192605a/b3667fb0",
    "region": "Asia",
    "location": "Japan"
  },
  {
    "name": "Rafael Nepomechie",
    "image": "https://dl.airtable.com/.attachmentThumbnails/6bfeb9d4979949cc495b145743571eeb/66bb2ef3",
    "region": "North America",
    "location": "USA"
  },
  {
    "name": "Mark Cunningham",
    "image": "https://dl.airtable.com/.attachmentThumbnails/b92a9d9461082bd553fffbcddfbc7b08/94b56123",
    "region": "Europe",
    "location": "Northern Ireland / UK"
  },
  {
    "name": "Kouhei Souji",
    "image": "https://dl.airtable.com/.attachmentThumbnails/4c330b5690e55249c3b25ba01816c0b3/15e4ceb9",
    "region": "Asia",
    "location": "Japan"
  },
  {
    "name": "Robert Wang",
    "image": "/images/advocates/no-advocate-photo.png",
    "region": "Europe",
    "location": "France"
  },
  {
    "name": "Abhigyan Mishra",
    "image": "https://dl.airtable.com/.attachmentThumbnails/b2a587d6a81daea41395974d8f4558d7/f0d94a2a",
    "location": "India"
  },
  {
    "name": "Jack Woehr",
    "image": "https://dl.airtable.com/.attachmentThumbnails/9f4af4a1b0616ee3b7f01dfe5eb2b9d5/1243f7e7",
    "region": "North America",
    "location": "USA"
  },
  {
    "name": "Ka Wa Yip",
    "image": "/images/advocates/no-advocate-photo.png"
  },
  {
    "name": "Yuma Nakamura",
    "image": "https://dl.airtable.com/.attachmentThumbnails/8de2dd87b311f90f30b450e76c7ea7d8/647996c6",
    "region": "Asia",
    "location": "Japan"
  },
  {
    "name": "Gal Wiener",
    "image": "https://dl.airtable.com/.attachmentThumbnails/23e9bf35f40457bd4309bf229e6c6484/ceeef73a",
    "region": "Asia",
    "location": "Israel"
  },
  {
    "name": "SheshaShayee Raghunathan",
    "image": "https://dl.airtable.com/.attachmentThumbnails/a226ddbc379097dcb066e46455614e37/53e28b0d",
    "region": "Asia",
    "location": "India"
  },
  {
    "name": "Johannes Weidenfeller",
    "image": "/images/advocates/no-advocate-photo.png",
    "region": "Europe",
    "location": "Switzerland"
  },
  {
    "name": "Christa Zoufal",
    "image": "https://dl.airtable.com/.attachmentThumbnails/b1b22749b098cea0691c26820cf8884c/bf6acee3",
    "region": "Europe",
    "location": "Switzerland"
  },
  {
    "name": "Luca Crippa",
    "image": "https://dl.airtable.com/.attachmentThumbnails/5171d470204ee551de85750cefa58d7a/6febf2f4",
    "region": "Europe",
    "location": "Italy"
  },
  {
    "name": "Karel Dumon",
    "image": "https://dl.airtable.com/.attachmentThumbnails/2cc1d7f5f5f98ddc38079620b2cd90ca/1e508136",
    "region": "Europe",
    "location": "Belgium"
  },
  {
    "name": "Eraraya Ricardo Muten",
    "image": "https://dl.airtable.com/.attachmentThumbnails/98807b30c14a60a36fad68fb9b29b649/cf8be7e4",
    "region": "Asia",
    "location": "Indonesia"
  },
  {
    "name": "Annanay Kapila",
    "image": "https://dl.airtable.com/.attachmentThumbnails/1719c6981b0565c4eeb6daaa4657b535/dfd6d7d4",
    "region": "Europe",
    "location": "Netherlands"
  },
  {
    "name": "Patric Mensac",
    "image": "/images/advocates/no-advocate-photo.png",
    "region": "Europe"
  },
  {
    "name": "Makoto Nakai",
    "image": "/images/advocates/no-advocate-photo.png",
    "region": "Asia",
    "location": "Japan"
  },
  {
    "name": "Kazumasa Umezawa",
    "image": "/images/advocates/no-advocate-photo.png"
  },
  {
    "name": "Miguel Paredes Quiñones",
    "image": "https://dl.airtable.com/.attachmentThumbnails/7b281af6d7879dce236e191188fa1075/7ee4b6db",
    "region": "South America",
    "location": "Brazil"
  },
  {
    "name": "Farai Mazhandu",
    "image": "https://dl.airtable.com/.attachmentThumbnails/12afc2854fd526a0d031bbb3757eba5d/7dd5e4d3",
    "region": "Africa",
    "location": "Zimbabwe"
  },
  {
    "name": "Dennis Liu",
    "image": "https://dl.airtable.com/.attachmentThumbnails/e76be5860eae48fff4d26dda7836f07a/bc055af3",
    "region": "North America",
    "location": "USA"
  },
  {
    "name": "Frederik Hardervig",
    "image": "/images/advocates/no-advocate-photo.png",
    "region": "Europe",
    "location": "Germany"
  },
  {
    "name": "Pierre Decoodt",
    "image": "https://dl.airtable.com/.attachmentThumbnails/a1a54de063dd75bc7144932516d13d91/e9594942",
    "region": "Europe",
    "location": "Belgium"
  },
  {
    "name": "Hayk Sargsyan",
    "image": "https://dl.airtable.com/.attachmentThumbnails/f408129bd11b207a888598c8c3fd46b8/1cd8f3e6",
    "location": "Armenia"
  },
  {
    "name": "Kareem El-Safty",
    "image": "/images/advocates/no-advocate-photo.png",
    "region": "Africa",
    "location": "Egypt"
  },
  {
    "name": "Davit Khachatryan",
    "image": "https://dl.airtable.com/.attachmentThumbnails/61ab6e4914627745f0f4fb4c5d6d1169/16b5697a",
    "location": "Armenia"
  },
  {
    "name": "Stefan Woerner",
    "image": "https://dl.airtable.com/.attachmentThumbnails/cf7298d730bba3434c8b966e58eb8b45/5d9dfe32",
    "region": "Europe",
    "location": "Switzerland"
  },
  {
    "name": "Vicente Pina Canelles",
    "image": "https://dl.airtable.com/.attachmentThumbnails/10f0812f6e6f83887feaec32fd43a457/a8cbdb6e",
    "region": "Europe",
    "location": "Spain"
  },
  {
    "name": "Bruno de Oliveira Chagas",
    "image": "https://dl.airtable.com/.attachmentThumbnails/821f3c77eec98f4e0c3064f184f01a99/d1b38ebf",
    "region": "South America",
    "location": "Brazil"
  },
  {
    "name": "Franklin de Lima Marquezino",
    "image": "https://dl.airtable.com/.attachmentThumbnails/21bad3cfed3d105f6a957a302578f839/aa8a8421",
    "region": "South America",
    "location": "Brazil"
  },
  {
    "name": "Russell Huffman",
    "image": "https://dl.airtable.com/.attachmentThumbnails/42ad38592d47636d9d18612ed575bc58/57714d9a",
    "region": "North America",
    "city": "Austin",
    "country": "USA",
    "slackId": "DES123",
    "slackUsername": "russell"
  },
  {
    "name": "Dr. Data Ng",
    "image": "https://dl.airtable.com/.attachmentThumbnails/a0928f1b5d0b71f2bb0fbe69b0cdb74d/0dc1ca3e",
    "region": "Asia",
    "location": "Hong Kong"
  },
  {
    "name": "Chris (Jielun) Chen",
    "image": "https://dl.airtable.com/.attachmentThumbnails/69dd6d3bb6cb6f5170fa71034a4dd453/6bbf97d1",
    "region": "North America",
    "location": "USA"
  },
  {
    "name": "Sayantan Pramanik",
    "image": "https://dl.airtable.com/.attachmentThumbnails/688e50835f0e90ae9bb37cfe48f72080/2c2d6c7a",
    "region": "Asia",
    "location": "India"
  },
  {
    "name": "Antonio Macaluso",
    "image": "https://dl.airtable.com/.attachmentThumbnails/923d81bfe841da6098ae9a1acf3235a2/817e7496",
    "location": "Italy"
  },
  {
    "name": "Kavitha hassan Yogaraj",
    "image": "https://dl.airtable.com/.attachmentThumbnails/32acb6e7169f50bfede16b8669fee7bb/e83fca03",
    "region": "Asia",
    "location": "India"
  },
  {
    "name": "Zachary Schoenfeld",
    "image": "/images/advocates/no-advocate-photo.png",
    "region": "North America",
    "location": "USA"
  },
  {
    "name": "Eleonora Picca",
    "image": "https://dl.airtable.com/.attachmentThumbnails/c3e9bdbe09f6193e5ec047a4738ccaef/90ef51c9",
    "location": "Italy"
  },
  {
    "name": "Rochisha Agarwal",
    "image": "https://dl.airtable.com/.attachmentThumbnails/3ce4ec6a698d7a4498accd050c88b3d8/91dec3a5",
    "location": "India"
  },
  {
    "name": "Abhigyan Mishra",
    "image": "https://dl.airtable.com/.attachmentThumbnails/fdf6d5d1fbe24617529b92727bbdd95e/445553d6",
    "region": "Asia",
    "location": "India"
  },
  {
    "name": "Yehuda Naveh",
    "image": "https://dl.airtable.com/.attachmentThumbnails/997902e7ee7268a0a3e116c0d5177308/437b0e27",
    "region": "Asia",
    "location": "Israel"
  },
  {
    "name": "Stefan H. Sack",
    "image": "https://dl.airtable.com/.attachmentThumbnails/17c67ace61bd519bfaba9107ae09f876/5e2bb022",
    "region": "Europe",
    "location": "Austria"
  },
  {
    "name": "Ignazio Pedone",
    "image": "/images/advocates/no-advocate-photo.png",
    "region": "Europe",
    "location": "Italy"
  },
  {
    "name": "Soyoung Shin",
    "image": "https://dl.airtable.com/.attachmentThumbnails/4846e95c2799f392fb583fdc75e9eb8d/9120d0e5",
    "region": "Asia",
    "location": "South Korea"
  },
  {
    "name": "Bill Minor",
    "image": "https://dl.airtable.com/.attachmentThumbnails/501c9d8488f23a400e2f3297149149bf/4d4a4013",
    "region": "North America",
    "location": "Canada"
  },
  {
    "name": "Kate Marshall",
    "image": "https://dl.airtable.com/.attachmentThumbnails/09a312a92ab904fb6478dbd22008ca18/a4c5316c",
    "region": "Europe",
    "location": "UK"
  },
  {
    "name": "Georgios Tsilimigkounakis ",
    "image": "/images/advocates/no-advocate-photo.png",
    "region": "Europe",
    "location": "Greece"
  },
  {
    "name": "Eric Michiels",
    "image": "https://dl.airtable.com/.attachmentThumbnails/6877b6b1e841a4bdcae3e4213f45e0cc/65d2ea48",
    "region": "Europe",
    "location": "Belgium"
  },
  {
    "name": "Stefan Kister",
    "image": "https://dl.airtable.com/.attachmentThumbnails/fabe9fcff82611e99a53c3a2e557f870/da2db9c5",
    "region": "Europe",
    "location": "Germany"
  },
  {
    "name": "Dibakar Sigdel",
    "image": "https://dl.airtable.com/.attachmentThumbnails/d8f58a3e69a8c52404e15ba26599caa6/55e3fd04",
    "region": "North America",
    "location": "USA"
  },
  {
    "name": "Najla Said",
    "image": "https://dl.airtable.com/.attachmentThumbnails/ed6ba60d9cc2f0082410fb78ef73e840/47ca5759",
    "region": "Europe",
    "location": "Italy"
  },
  {
    "name": "Robert Loredo",
    "image": "https://dl.airtable.com/.attachmentThumbnails/e0e4db63e9f8859aa0207e2d08b13def/1652a25d",
    "region": "North America",
    "location": "USA"
  },
  {
    "name": "kareem hesham el-safty",
    "image": "https://dl.airtable.com/.attachmentThumbnails/017e781ed3135f6af28f8330bacfa234/38adfabb",
    "region": "Africa",
    "location": "Egypt"
  },
  {
    "name": "Mantas Cepulkovskis",
    "image": "https://dl.airtable.com/.attachmentThumbnails/aed5a5f1f3a12f982eb368dd18588019/56ef93ec",
    "region": "Europe",
    "location": "Lithuania"
  },
  {
    "name": "Spencer Churchill",
    "image": "https://dl.airtable.com/.attachmentThumbnails/11938d9ee05b89aa1e8f69ee77157c3e/03ba6e10",
    "region": "North America",
    "location": "USA"
  },
  {
    "name": "Pablo Antonio Moreno Casares",
    "image": "https://dl.airtable.com/.attachmentThumbnails/ab8793bba4cc0c08ea00e8d0112f6386/aa5f468e",
    "region": "Europe",
    "location": "Spain"
  },
  {
    "name": "Dekel Meirom",
    "image": "https://dl.airtable.com/.attachmentThumbnails/0371a7a6ce4984b6ffb9acf1aded3064/b2f10371",
    "region": "Asia",
    "location": "Israel"
  },
  {
    "name": "Sasha Lazarevic",
    "image": "https://dl.airtable.com/.attachmentThumbnails/9fe943bbd886df9845e863086c4b330f/234d8824",
    "region": "Europe",
    "location": "Switzerland"
  },
  {
    "name": "Maddy Tod",
    "image": "https://dl.airtable.com/.attachmentThumbnails/06c59d607689b2104e4868777a477be0/f0636965",
    "region": "Europe",
    "location": "UK"
  },
  {
    "name": "Kenji Tanaka",
    "image": "https://dl.airtable.com/.attachmentThumbnails/65a05981ce25f8b08c19e9b99ba79a45/396b3d98",
    "region": "Asia",
    "location": "Japan"
  },
  {
    "name": "Lennart Schulze",
    "image": "https://dl.airtable.com/.attachmentThumbnails/443779772099b47a4d14bf2a2ea55df5/7b4a00b3",
    "region": "Europe",
    "location": "Germany"
  },
  {
    "name": "Isabell Heider",
    "image": "/images/advocates/no-advocate-photo.png",
    "region": "Europe",
    "location": "Germany"
  },
  {
    "name": "Filippo Tramonto",
    "image": "https://dl.airtable.com/.attachmentThumbnails/7e19ecf0077f6f978e5106bd64261f01/c8243678",
    "region": "Europe",
    "location": "Italy"
  },
  {
    "name": "Sorin Bolos",
    "image": "https://dl.airtable.com/.attachmentThumbnails/30bb01a161d5e89335140c671be8a61f/db700063",
    "location": "Romania"
  },
  {
    "name": "Kevin Roche",
    "image": "https://dl.airtable.com/.attachmentThumbnails/77e159a01a79bd7be0301d6e1be31f9f/0cd7cad3",
    "region": "North America",
    "location": "USA"
  },
  {
    "name": "Duarte Silva",
    "image": "https://dl.airtable.com/.attachmentThumbnails/c42e114322904f1536042175befeb56c/008e2ce2",
    "region": "Europe",
    "location": "Portugal"
  },
  {
    "name": "Zhiyong Zhang",
    "image": "https://dl.airtable.com/.attachmentThumbnails/1fa32922b5030661c07d56f73715adb3/10eb64cf",
    "region": "North America",
    "location": "USA"
  },
  {
    "name": "Swarnadeep Majumder",
    "image": "https://dl.airtable.com/.attachmentThumbnails/9115295736c08c5701d6524ea3ad40c2/edb48e26",
    "region": "North America",
    "location": "USA"
  },
  {
    "name": "Huang Junye",
    "image": "https://dl.airtable.com/.attachmentThumbnails/249fbd264a24be89898bf507b58d811b/7ef13614",
    "region": "Asia",
    "location": "Singapore"
  },
  {
    "name": "Mohammad Ghazi vakili",
    "image": "https://dl.airtable.com/.attachmentThumbnails/ceca635dc93476e2c7b1fcca9517d8e7/2577baef",
    "region": "Europe",
    "location": "Italy"
  },
  {
    "name": "Yuya Jeremy Ong",
    "image": "/images/advocates/no-advocate-photo.png",
    "region": "North America",
    "location": "USA"
  },
  {
    "name": "Gillen Beck",
    "image": "/images/advocates/no-advocate-photo.png",
    "region": "Europe",
    "location": "Switzerland"
  },
  {
    "name": "Prof. Dr. Gerhard Hellstern",
    "image": "https://dl.airtable.com/.attachmentThumbnails/05d7e60a722c1a35b4549dcd3a7bcf41/243c8e61",
    "region": "Europe",
    "location": "Germany"
  },
  {
    "name": "Ayumu Shiraishi",
    "image": "https://dl.airtable.com/.attachmentThumbnails/fd78430f8188fbadf299b48859157929/19bb0505",
    "region": "Asia",
    "location": "Japan"
  },
  {
    "name": "Salvador de la Puente González",
    "image": "/images/advocates/no-advocate-photo.png",
    "region": "North America"
  },
  {
    "name": "Ismail Yunus Akhalwaya",
    "image": "/images/advocates/no-advocate-photo.png",
    "region": "Africa"
  },
  {
    "name": "Anupama Ray",
    "image": "https://dl.airtable.com/.attachmentThumbnails/f3aed997dba37647869a1d76f8829ffc/d8534186",
    "location": "India"
  }
]
